{
"type": "FeatureCollection",
"name": "akl_clinics",
"crs": { "type": "name", "properties": { "name": "urn:ogc:def:crs:OGC:1.3:CRS84" } },
"features": [
{ "type": "Feature", "properties": { "name": "Age Concern", "address": "57 Rosebank Road", "lat": -36.89445, "lon": 174.69747, "DZ2018": 7600424 }, "geometry": { "type": "Point", "coordinates": [ 174.6975, -36.8944 ] } },
{ "type": "Feature", "properties": { "name": "Oranga Community Center", "address": "52-54 Waitangi Road", "lat": -36.91129, "lon": 174.79955, "DZ2018": 7601160 }, "geometry": { "type": "Point", "coordinates": [ 174.7996, -36.9113 ] } },
{ "type": "Feature", "properties": { "name": "Waiheke Centre", "address": "61 Ostend Road", "lat": -36.79633, "lon": 175.04809, "DZ2018": 7601911 }, "geometry": { "type": "Point", "coordinates": [ 175.0481, -36.7963 ] } },
{ "type": "Feature", "properties": { "name": "Waiheke Island Trust", "address": "5 Belgium Street", "lat": -36.79583, "lon": 175.04453, "DZ2018": 7601911 }, "geometry": { "type": "Point", "coordinates": [ 175.0445, -36.7958 ] } },
{ "type": "Feature", "properties": { "name": "Te Oro Music & Arts Centre", "address": "98 Line Road", "lat": -36.87884, "lon": 174.85684, "DZ2018": 7601441 }, "geometry": { "type": "Point", "coordinates": [ 174.8568, -36.8788 ] } },
{ "type": "Feature", "properties": { "name": "Wesly Community Centre", "address": "740 Sandringham Road", "lat": -36.9011, "lon": 174.73115, "DZ2018": 7600621 }, "geometry": { "type": "Point", "coordinates": [ 174.7312, -36.9011 ] } },
{ "type": "Feature", "properties": { "name": "Univeristy of Auckland Student Health Centre", "address": "9 Symonds Street", "lat": -36.85208, "lon": 174.76944, "DZ2018": 7601026 }, "geometry": { "type": "Point", "coordinates": [ 174.7694, -36.8521 ] } },
{ "type": "Feature", "properties": { "name": "Otahuhu Community Center", "address": "10 High Street", "lat": -36.94496, "lon": 174.8459, "DZ2018": 7601363 }, "geometry": { "type": "Point", "coordinates": [ 174.8459, -36.945 ] } },
{ "type": "Feature", "properties": { "name": "Rehab Plus", "address": "54 Carrington Road", "lat": -36.8738, "lon": 174.71195, "DZ2018": 7600508 }, "geometry": { "type": "Point", "coordinates": [ 174.712, -36.8738 ] } }
]
}
